{"name": "정앤정피부관리실", "address": "서울 강남구 신사동", "phone": "02-514-9190", "detail_url": "https://m.place.naver.com/place/13486413/home", "id": "13486413", "source_link": "https://m.place.naver.com/place/13486413/home", "latitude": 37.5235644, "longitude": 127.0358678, "owner_name": ""}
{"name": "프롬미 강남본점", "address": "서울 강남구 논현동", "phone": "0507-1312-4390", "detail_url": "https://m.place.naver.com/place/1669894270/home", "id": "1669894270", "source_link": "https://m.place.naver.com/place/1669894270/home", "latitude": 37.5154592, "longitude": 127.0297449, "owner_name": "", "instagram": "https://www.instagram.com/from.me_skin"}
{"name": "온에스테틱 선릉점", "address": "서울 강남구 대치동", "phone": "0507-1343-5225", "detail_url": "https://m.place.naver.com/place/1503740004/home", "id": "1503740004", "source_link": "https://m.place.naver.com/place/1503740004/home", "latitude": 37.5034714, "longitude": 127.0517203, "owner_name": "", "instagram": "https://www.instagram.com/on__aesthetic/"}
{"name": "더록시 논현점", "address": "서울 강남구 논현동", "phone": "0507-1370-0805", "detail_url": "https://m.place.naver.com/place/1177278371/home", "id": "1177278371", "source_link": "https://m.place.naver.com/place/1177278371/home", "latitude": 37.5078754, "longitude": 127.0349376, "owner_name": "", "instagram": "https://www.instagram.com/theroxy_official/"}
{"name": "미르테 바이 혜정", "address": "서울 강남구 논현동", "phone": "02-512-0675", "detail_url": "https://m.place.naver.com/place/31420339/home", "id": "31420339", "source_link": "https://m.place.naver.com/place/31420339/home", "latitude": 37.5215885, "longitude": 127.0376681, "owner_name": "", "instagram": "https://www.instagram.com/myrthen_by_hyejung?igsh=MWMycWlwM2lod2ZqNA=="}
{"name": "카스탈리아 마사지", "address": "서울 강남구 논현동", "phone": "", "detail_url": "https://m.place.naver.com/place/2017027527/home", "id": "2017027527", "source_link": "https://m.place.naver.com/place/2017027527/home", "latitude": 37.5209836, "longitude": 127.0355367, "owner_name": "", "instagram": "https://www.instagram.com/castalia_official?igsh=MXMxcWtkcHFoeGNxdw=="}
{"name": "더풋샵마사지 압구정역점", "address": "서울 강남구 신사동", "phone": "0507-1347-6289", "detail_url": "https://m.place.naver.com/place/12917508/home", "id": "12917508", "source_link": "https://m.place.naver.com/place/12917508/home", "latitude": 37.5259003, "longitude": 127.0295122, "owner_name": ""}
{"name": "온에스테틱 압구정점", "address": "서울 강남구 신사동", "phone": "0507-1365-2853", "detail_url": "https://m.place.naver.com/place/2043741767/home", "id": "2043741767", "source_link": "https://m.place.naver.com/place/2043741767/home", "latitude": 37.5284023, "longitude": 127.0366581, "owner_name": "", "instagram": "https://www.instagram.com/on__aesthetic/"}
{"name": "벨라인 에스테틱 강남선릉점", "address": "서울 강남구 대치동", "phone": "0507-1415-6615", "detail_url": "https://m.place.naver.com/place/1497067121/home", "id": "1497067121", "source_link": "https://m.place.naver.com/place/1497067121/home", "latitude": 37.5034191, "longitude": 127.0538704, "owner_name": "", "instagram": "https://www.instagram.com/bella_in_aesthetic"}
{"name": "구동명쾌유마사지 강남본점", "address": "서울 강남구 논현동", "phone": "02-548-0150", "detail_url": "https://m.place.naver.com/place/35188045/home", "id": "35188045", "source_link": "https://m.place.naver.com/place/35188045/home", "latitude": 37.5140716, "longitude": 127.0302301, "owner_name": ""}
{"name": "정앤정피부관리실", "address": "서울 강남구 신사동", "phone": "02-514-9190", "detail_url": "https://m.place.naver.com/place/13486413/home", "id": "13486413", "source_link": "https://m.place.naver.com/place/13486413/home", "latitude": 37.5235644, "longitude": 127.0358678, "owner_name": ""}
{"name": "프롬미 강남본점", "address": "서울 강남구 논현동", "phone": "0507-1312-4390", "detail_url": "https://m.place.naver.com/place/1669894270/home", "id": "1669894270", "source_link": "https://m.place.naver.com/place/1669894270/home", "latitude": 37.5154592, "longitude": 127.0297449, "owner_name": "", "instagram_handle": "https://www.instagram.com/from.me_skin"}
{"name": "온에스테틱 선릉점", "address": "서울 강남구 대치동", "phone": "0507-1343-5225", "detail_url": "https://m.place.naver.com/place/1503740004/home", "id": "1503740004", "source_link": "https://m.place.naver.com/place/1503740004/home", "latitude": 37.5034714, "longitude": 127.0517203, "owner_name": "", "instagram_handle": "https://www.instagram.com/on__aesthetic/"}
{"name": "더록시 논현점", "address": "서울 강남구 논현동", "phone": "0507-1370-0805", "detail_url": "https://m.place.naver.com/place/1177278371/home", "id": "1177278371", "source_link": "https://m.place.naver.com/place/1177278371/home", "latitude": 37.5078754, "longitude": 127.0349376, "owner_name": "", "instagram_handle": "https://www.instagram.com/theroxy_official/"}
{"name": "미르테 바이 혜정", "address": "서울 강남구 논현동", "phone": "02-512-0675", "detail_url": "https://m.place.naver.com/place/31420339/home", "id": "31420339", "source_link": "https://m.place.naver.com/place/31420339/home", "latitude": 37.5215885, "longitude": 127.0376681, "owner_name": "", "instagram_handle": "https://www.instagram.com/myrthen_by_hyejung?igsh=MWMycWlwM2lod2ZqNA=="}
{"name": "카스탈리아 마사지", "address": "서울 강남구 논현동", "phone": "", "detail_url": "https://m.place.naver.com/place/2017027527/home", "id": "2017027527", "source_link": "https://m.place.naver.com/place/2017027527/home", "latitude": 37.5209836, "longitude": 127.0355367, "owner_name": "", "instagram_handle": "https://www.instagram.com/castalia_official?igsh=MXMxcWtkcHFoeGNxdw=="}
{"name": "더풋샵마사지 압구정역점", "address": "서울 강남구 신사동", "phone": "0507-1347-6289", "detail_url": "https://m.place.naver.com/place/12917508/home", "id": "12917508", "source_link": "https://m.place.naver.com/place/12917508/home", "latitude": 37.5259003, "longitude": 127.0295122, "owner_name": ""}
{"name": "온에스테틱 압구정점", "address": "서울 강남구 신사동", "phone": "0507-1365-2853", "detail_url": "https://m.place.naver.com/place/2043741767/home", "id": "2043741767", "source_link": "https://m.place.naver.com/place/2043741767/home", "latitude": 37.5284023, "longitude": 127.0366581, "owner_name": "", "instagram_handle": "https://www.instagram.com/on__aesthetic/"}
{"name": "벨라인 에스테틱 강남선릉점", "address": "서울 강남구 대치동", "phone": "0507-1415-6615", "detail_url": "https://m.place.naver.com/place/1497067121/home", "id": "1497067121", "source_link": "https://m.place.naver.com/place/1497067121/home", "latitude": 37.5034191, "longitude": 127.0538704, "owner_name": "", "instagram_handle": "https://www.instagram.com/bella_in_aesthetic"}
{"name": "구동명쾌유마사지 강남본점", "address": "서울 강남구 논현동", "phone": "02-548-0150", "detail_url": "https://m.place.naver.com/place/35188045/home", "id": "35188045", "source_link": "https://m.place.naver.com/place/35188045/home", "latitude": 37.5140716, "longitude": 127.0302301, "owner_name": ""}
{"name": "정앤정피부관리실", "address": "서울 강남구 신사동", "phone": "02-514-9190", "detail_url": "https://m.place.naver.com/place/13486413/home", "id": "13486413", "source_link": "https://m.place.naver.com/place/13486413/home", "latitude": 37.5235644, "longitude": 127.0358678, "owner_name": ""}
{"name": "프롬미 강남본점", "address": "서울 강남구 논현동", "phone": "0507-1312-4390", "detail_url": "https://m.place.naver.com/place/1669894270/home", "id": "1669894270", "source_link": "https://m.place.naver.com/place/1669894270/home", "latitude": 37.5154592, "longitude": 127.0297449, "owner_name": "", "instagram_handle": "https://www.instagram.com/from.me_skin"}
{"name": "온에스테틱 선릉점", "address": "서울 강남구 대치동", "phone": "0507-1343-5225", "detail_url": "https://m.place.naver.com/place/1503740004/home", "id": "1503740004", "source_link": "https://m.place.naver.com/place/1503740004/home", "latitude": 37.5034714, "longitude": 127.0517203, "owner_name": "", "instagram_handle": "https://www.instagram.com/on__aesthetic/", "naver_blog_id": "onaesthetic", "email": "onaesthetic@naver.com"}
{"name": "더록시 논현점", "address": "서울 강남구 논현동", "phone": "0507-1370-0805", "detail_url": "https://m.place.naver.com/place/1177278371/home", "id": "1177278371", "source_link": "https://m.place.naver.com/place/1177278371/home", "latitude": 37.5078754, "longitude": 127.0349376, "owner_name": "", "instagram_handle": "https://www.instagram.com/theroxy_official/", "naver_blog_id": "theroxy_", "email": "theroxy_@naver.com"}
{"name": "미르테 바이 혜정", "address": "서울 강남구 논현동", "phone": "02-512-0675", "detail_url": "https://m.place.naver.com/place/31420339/home", "id": "31420339", "source_link": "https://m.place.naver.com/place/31420339/home", "latitude": 37.5215885, "longitude": 127.0376681, "owner_name": "", "instagram_handle": "https://www.instagram.com/myrthen_by_hyejung?igsh=MWMycWlwM2lod2ZqNA==", "naver_blog_id": "iroverjj3535", "email": "iroverjj3535@naver.com"}
{"name": "더풋샵마사지 압구정역점", "address": "서울 강남구 신사동", "phone": "0507-1347-6289", "detail_url": "https://m.place.naver.com/place/12917508/home", "id": "12917508", "source_link": "https://m.place.naver.com/place/12917508/home", "latitude": 37.5259003, "longitude": 127.0295122, "owner_name": ""}
{"name": "카스탈리아 마사지", "address": "서울 강남구 논현동", "phone": "", "detail_url": "https://m.place.naver.com/place/2017027527/home", "id": "2017027527", "source_link": "https://m.place.naver.com/place/2017027527/home", "latitude": 37.5209836, "longitude": 127.0355367, "owner_name": "", "instagram_handle": "https://www.instagram.com/castalia_official?igsh=MXMxcWtkcHFoeGNxdw=="}
{"name": "온에스테틱 압구정점", "address": "서울 강남구 신사동", "phone": "0507-1365-2853", "detail_url": "https://m.place.naver.com/place/2043741767/home", "id": "2043741767", "source_link": "https://m.place.naver.com/place/2043741767/home", "latitude": 37.5284023, "longitude": 127.0366581, "owner_name": "", "instagram_handle": "https://www.instagram.com/on__aesthetic/", "naver_blog_id": "onaesthetic", "email": "onaesthetic@naver.com"}
{"name": "벨라인 에스테틱 강남선릉점", "address": "서울 강남구 대치동", "phone": "0507-1415-6615", "detail_url": "https://m.place.naver.com/place/1497067121/home", "id": "1497067121", "source_link": "https://m.place.naver.com/place/1497067121/home", "latitude": 37.5034191, "longitude": 127.0538704, "owner_name": "", "instagram_handle": "https://www.instagram.com/bella_in_aesthetic"}
{"name": "구동명쾌유마사지 강남본점", "address": "서울 강남구 논현동", "phone": "02-548-0150", "detail_url": "https://m.place.naver.com/place/35188045/home", "id": "35188045", "source_link": "https://m.place.naver.com/place/35188045/home", "latitude": 37.5140716, "longitude": 127.0302301, "owner_name": ""}
{"name": "정앤정피부관리실", "address": "서울 강남구 도산대로45길 16-5", "phone": "02-514-9190", "detail_url": "https://m.place.naver.com/place/13486413/home", "id": "13486413", "source_link": "https://m.place.naver.com/place/13486413/home", "latitude": 37.5235644, "longitude": 127.0358678, "owner_name": ""}
{"name": "프롬미 강남본점", "address": "서울 강남구 논현로 711 프롬미 강남본점", "phone": "0507-1312-4390", "detail_url": "https://m.place.naver.com/place/1669894270/home", "id": "1669894270", "source_link": "https://m.place.naver.com/place/1669894270/home", "latitude": 37.5154592, "longitude": 127.0297449, "owner_name": "", "instagram_handle": "https://www.instagram.com/from.me_skin"}
{"name": "온에스테틱 선릉점", "address": "서울 강남구 선릉로86길 24 4층", "phone": "0507-1343-5225", "detail_url": "https://m.place.naver.com/place/1503740004/home", "id": "1503740004", "source_link": "https://m.place.naver.com/place/1503740004/home", "latitude": 37.5034714, "longitude": 127.0517203, "owner_name": "", "instagram_handle": "https://www.instagram.com/on__aesthetic/", "naver_blog_id": "onaesthetic", "email": "onaesthetic@naver.com"}
{"name": "더록시 논현점", "address": "서울 강남구 봉은사로 209 11층", "phone": "0507-1370-0805", "detail_url": "https://m.place.naver.com/place/1177278371/home", "id": "1177278371", "source_link": "https://m.place.naver.com/place/1177278371/home", "latitude": 37.5078754, "longitude": 127.0349376, "owner_name": "", "instagram_handle": "https://www.instagram.com/theroxy_official/", "naver_blog_id": "theroxy_", "email": "theroxy_@naver.com"}
{"name": "미르테 바이 혜정", "address": "서울 강남구 도산대로50길 13 논현빌딩 5층", "phone": "02-512-0675", "detail_url": "https://m.place.naver.com/place/31420339/home", "id": "31420339", "source_link": "https://m.place.naver.com/place/31420339/home", "latitude": 37.5215885, "longitude": 127.0376681, "owner_name": "", "instagram_handle": "https://www.instagram.com/myrthen_by_hyejung?igsh=MWMycWlwM2lod2ZqNA==", "naver_blog_id": "iroverjj3535", "email": "iroverjj3535@naver.com"}
{"name": "더풋샵마사지 압구정역점", "address": "서울 강남구 압구정로30길 23 지하1층", "phone": "0507-1347-6289", "detail_url": "https://m.place.naver.com/place/12917508/home", "id": "12917508", "source_link": "https://m.place.naver.com/place/12917508/home", "latitude": 37.5259003, "longitude": 127.0295122, "owner_name": ""}
{"name": "카스탈리아 마사지", "address": "서울 강남구 언주로150길 14 지하1층", "phone": "", "detail_url": "https://m.place.naver.com/place/2017027527/home", "id": "2017027527", "source_link": "https://m.place.naver.com/place/2017027527/home", "latitude": 37.5209836, "longitude": 127.0355367, "owner_name": "", "instagram_handle": "https://www.instagram.com/castalia_official?igsh=MXMxcWtkcHFoeGNxdw=="}
{"name": "벨라인 에스테틱 강남선릉점", "address": "서울 강남구 역삼로69길 27 2층", "phone": "0507-1415-6615", "detail_url": "https://m.place.naver.com/place/1497067121/home", "id": "1497067121", "source_link": "https://m.place.naver.com/place/1497067121/home", "latitude": 37.5034191, "longitude": 127.0538704, "owner_name": "", "instagram_handle": "https://www.instagram.com/bella_in_aesthetic"}
{"name": "온에스테틱 압구정점", "address": "서울 강남구 압구정로46길 4 2층", "phone": "0507-1365-2853", "detail_url": "https://m.place.naver.com/place/2043741767/home", "id": "2043741767", "source_link": "https://m.place.naver.com/place/2043741767/home", "latitude": 37.5284023, "longitude": 127.0366581, "owner_name": "", "instagram_handle": "https://www.instagram.com/on__aesthetic/", "naver_blog_id": "onaesthetic", "email": "onaesthetic@naver.com"}
{"name": "구동명쾌유마사지 강남본점", "address": "서울 강남구 학동로 177 태석빌딩 3층", "phone": "02-548-0150", "detail_url": "https://m.place.naver.com/place/35188045/home", "id": "35188045", "source_link": "https://m.place.naver.com/place/35188045/home", "latitude": 37.5140716, "longitude": 127.0302301, "owner_name": ""}
{"name": "정앤정피부관리실", "address": "서울 강남구 도산대로45길 16-5", "phone": "02-514-9190", "detail_url": "https://m.place.naver.com/place/13486413/home", "id": "13486413", "source_link": "https://m.place.naver.com/place/13486413/home", "latitude": 37.5235644, "longitude": 127.0358678, "owner_name": ""}
{"name": "프롬미 강남본점", "address": "서울 강남구 논현로 711 프롬미 강남본점", "phone": "0507-1312-4390", "detail_url": "https://m.place.naver.com/place/1669894270/home", "id": "1669894270", "source_link": "https://m.place.naver.com/place/1669894270/home", "latitude": 37.5154592, "longitude": 127.0297449, "owner_name": "", "instagram_handle": "https://www.instagram.com/from.me_skin"}
{"name": "미엘피부관리샵", "address": "인천 부평구 부평대로104번길 20 진하우징 101호 미엘피부관리샵", "phone": "0507-1419-8943", "detail_url": "https://m.place.naver.com/place/37179838/home", "id": "37179838", "source_link": "https://m.place.naver.com/place/37179838/home", "latitude": 37.5005529, "longitude": 126.7232009, "owner_name": ""}
{"name": "데자뷰메디스킨 인천점", "address": "인천 부평구 경원대로 1395 1101, 1103~1106호 데자뷰메디스킨", "phone": "0507-1357-3431", "detail_url": "https://m.place.naver.com/place/1469292427/home", "id": "1469292427", "source_link": "https://m.place.naver.com/place/1469292427/home", "latitude": 37.491839, "longitude": 126.7244702, "owner_name": "", "instagram_handle": "https://www.instagram.com/dejavu__ms/"}
{"name": "키웰 인천부평점", "address": "인천 부평구 부평대로12번길 17 501호", "phone": "1666-4589", "detail_url": "https://m.place.naver.com/place/38333233/home", "id": "38333233", "source_link": "https://m.place.naver.com/place/38333233/home", "latitude": 37.4924847, "longitude": 126.7242864, "owner_name": "", "instagram_handle": "https://www.instagram.com/keywellbp", "naver_blog_id": "keywell00", "email": "keywell00@naver.com"}
{"name": "약손명가 부평점", "address": "인천 부평구 광장로 28 SR 노빌리안 7층", "phone": "032-527-1977", "detail_url": "https://m.place.naver.com/place/21106619/home", "id": "21106619", "source_link": "https://m.place.naver.com/place/21106619/home", "latitude": 37.4904402, "longitude": 126.7248666, "owner_name": "", "instagram_handle": "http://www.instagram.com/ysmg_bupyeong"}
{"name": "더풋샵마사지 부평 테마의거리점", "address": "인천 부평구 대정로 66 3층 303호", "phone": "0507-1372-5700", "detail_url": "https://m.place.naver.com/place/1130459851/home", "id": "1130459851", "source_link": "https://m.place.naver.com/place/1130459851/home", "latitude": 37.4935756, "longitude": 126.7266952, "owner_name": "", "naver_blog_id": "thefootshop5700", "email": "thefootshop5700@naver.com"}
{"name": "톤스파앤바디 아로마테라피 산전산후뷰티마사지인천부평점", "address": "인천 부평구 광장로4번길 8 3층", "phone": "0507-1313-5603", "detail_url": "https://m.place.naver.com/place/1748678819/home", "id": "1748678819", "source_link": "https://m.place.naver.com/place/1748678819/home", "latitude": 37.4908329, "longitude": 126.7222424, "owner_name": ""}
{"name": "골드스파테라피 마사지 인천부평점", "address": "인천 부평구 주부토로81번길 50 3층 314호~316호", "phone": "032-362-2661", "detail_url": "https://m.place.naver.com/place/1770413141/home", "id": "1770413141", "source_link": "https://m.place.naver.com/place/1770413141/home", "latitude": 37.5028539, "longitude": 126.7225825, "owner_name": "", "instagram_handle": "https://www.instagram.com/goldspatherapy"}
{"name": "아우르메 테라피 뷰티앤스파 마사지 인천부평점", "address": "인천 부평구 부평문화로 56 3층", "phone": "0507-1425-0486", "detail_url": "https://m.place.naver.com/place/1058592122/home", "id": "1058592122", "source_link": "https://m.place.naver.com/place/1058592122/home", "latitude": 37.4937439, "longitude": 126.7224915, "owner_name": "", "naver_blog_id": "victsoon", "email": "victsoon@naver.com"}
{"name": "클레오파트라", "address": "인천 부평구 장제로 219 2층 클레오파트라", "phone": "0507-1406-6843", "detail_url": "https://m.place.naver.com/place/874372866/home", "id": "874372866", "source_link": "https://m.place.naver.com/place/874372866/home", "latitude": 37.5051205, "longitude": 126.73082, "owner_name": "", "instagram_handle": "http://www.instagram.com/cleopatra_incheon", "naver_blog_id": "zzone123", "email": "zzone123@naver.com"}
{"name": "올풋샵 마사지 부평점", "address": "인천 부평구 부평문화로 32 7층", "phone": "032-508-9688", "detail_url": "https://m.place.naver.com/place/1190120434/home", "id": "1190120434", "source_link": "https://m.place.naver.com/place/1190120434/home", "latitude": 37.4932859, "longitude": 126.7202141, "owner_name": ""}
{"name": "미엘피부관리샵", "address": "인천 부평구 부평대로104번길 20 진하우징 101호 미엘피부관리샵", "phone": "0507-1419-8943", "detail_url": "https://m.place.naver.com/place/37179838/home", "id": "37179838", "source_link": "https://m.place.naver.com/place/37179838/home", "latitude": 37.5005529, "longitude": 126.7232009, "owner_name": ""}
{"name": "데자뷰메디스킨 인천점", "address": "인천 부평구 경원대로 1395 1101, 1103~1106호 데자뷰메디스킨", "phone": "0507-1357-3431", "detail_url": "https://m.place.naver.com/place/1469292427/home", "id": "1469292427", "source_link": "https://m.place.naver.com/place/1469292427/home", "latitude": 37.491839, "longitude": 126.7244702, "owner_name": "", "instagram_handle": "https://www.instagram.com/dejavu__ms/", "talk_url": "http://talk.naver.com/wc93eo3?frm=mnmb&frm=nmb_detail#nafullscreen"}
{"name": "키웰 인천부평점", "address": "인천 부평구 부평대로12번길 17 501호", "phone": "1666-4589", "detail_url": "https://m.place.naver.com/place/38333233/home", "id": "38333233", "source_link": "https://m.place.naver.com/place/38333233/home", "latitude": 37.4924847, "longitude": 126.7242864, "owner_name": "", "instagram_handle": "https://www.instagram.com/keywellbp", "talk_url": "http://talk.naver.com/wcdktb?frm=mnmb&frm=nmb_detail#nafullscreen", "naver_blog_id": "keywell00", "email": "keywell00@naver.com"}
{"name": "약손명가 부평점", "address": "인천 부평구 광장로 28 SR 노빌리안 7층", "phone": "032-527-1977", "detail_url": "https://m.place.naver.com/place/21106619/home", "id": "21106619", "source_link": "https://m.place.naver.com/place/21106619/home", "latitude": 37.4904402, "longitude": 126.7248666, "owner_name": "", "instagram_handle": "http://www.instagram.com/ysmg_bupyeong", "talk_url": "http://talk.naver.com/w457w6?frm=pnmb&frm=nmb_detail#nafullscreen"}
{"name": "더풋샵마사지 부평 테마의거리점", "address": "인천 부평구 대정로 66 3층 303호", "phone": "0507-1372-5700", "detail_url": "https://m.place.naver.com/place/1130459851/home", "id": "1130459851", "source_link": "https://m.place.naver.com/place/1130459851/home", "latitude": 37.4935756, "longitude": 126.7266952, "owner_name": "", "naver_blog_id": "thefootshop5700", "email": "thefootshop5700@naver.com"}
{"name": "톤스파앤바디 아로마테라피 산전산후뷰티마사지인천부평점", "address": "인천 부평구 광장로4번길 8 3층", "phone": "0507-1313-5603", "detail_url": "https://m.place.naver.com/place/1748678819/home", "id": "1748678819", "source_link": "https://m.place.naver.com/place/1748678819/home", "latitude": 37.4908329, "longitude": 126.7222424, "owner_name": "", "talk_url": "http://talk.naver.com/ww6jght?frm=mnmb&frm=nmb_detail#nafullscreen"}
{"name": "골드스파테라피 마사지 인천부평점", "address": "인천 부평구 주부토로81번길 50 3층 314호~316호", "phone": "032-362-2661", "detail_url": "https://m.place.naver.com/place/1770413141/home", "id": "1770413141", "source_link": "https://m.place.naver.com/place/1770413141/home", "latitude": 37.5028539, "longitude": 126.7225825, "owner_name": "", "instagram_handle": "https://www.instagram.com/goldspatherapy", "talk_url": "http://talk.naver.com/wc2eac?frm=mnmb&frm=nmb_detail#nafullscreen"}
{"name": "아우르메 테라피 뷰티앤스파 마사지 인천부평점", "address": "인천 부평구 부평문화로 56 3층", "phone": "0507-1425-0486", "detail_url": "https://m.place.naver.com/place/1058592122/home", "id": "1058592122", "source_link": "https://m.place.naver.com/place/1058592122/home", "latitude": 37.4937439, "longitude": 126.7224915, "owner_name": "", "talk_url": "http://talk.naver.com/w4vf6o?frm=pnmb&frm=nmb_detail#nafullscreen", "naver_blog_id": "victsoon", "email": "victsoon@naver.com"}
{"name": "클레오파트라", "address": "인천 부평구 장제로 219 2층 클레오파트라", "phone": "0507-1406-6843", "detail_url": "https://m.place.naver.com/place/874372866/home", "id": "874372866", "source_link": "https://m.place.naver.com/place/874372866/home", "latitude": 37.5051205, "longitude": 126.73082, "owner_name": "", "instagram_handle": "http://www.instagram.com/cleopatra_incheon", "talk_url": "http://talk.naver.com/wchnbl?frm=mnmb&frm=nmb_detail#nafullscreen", "naver_blog_id": "zzone123", "email": "zzone123@naver.com"}
{"name": "올풋샵 마사지 부평점", "address": "인천 부평구 부평문화로 32 7층", "phone": "032-508-9688", "detail_url": "https://m.place.naver.com/place/1190120434/home", "id": "1190120434", "source_link": "https://m.place.naver.com/place/1190120434/home", "latitude": 37.4932859, "longitude": 126.7202141, "owner_name": "", "talk_url": "http://talk.naver.com/w41hhn?frm=pnmb&frm=nmb_detail#nafullscreen"}
